[
    { "name": "Pierre Elliott Trudeau High School", "lat": 43.8765, "lng": -79.3166 },
    { "name": "Armadale Public School", "lat": 43.83710536681205, "lng": -79.27292091155289 },
    { "name": "Cedarwood Public School", "lat": 43.84449693937457, "lng": -79.24452923343564 }, 
    { "name": "Coppard Glen Public School", "lat": 43.8397, "lng": -79.2840 },
    { "name": "Markham Gateway Public School", "lat": 43.8383, "lng": -79.2756 },
    { "name": "Ellen Fairclough Public School", "lat": 43.8451, "lng": -79.2849 },
    { "name": "Ashton Meadows Public School", "lat": 43.8532, "lng": -79.3601 },
    { "name": "Beckett Farm Public School", "lat": 43.8750, "lng": -79.3361 },
    { "name": "Castlemore Public School", "lat": 43.89759855893644, "lng": -79.30353885318307 },
    { "name": "Stonebridge Public School", "lat": 43.8759, "lng": -79.3215 },
    { "name": "Milliken Mills Public School", "lat": 43.826819333775866, "lng": -79.31860320588252 },
    { "name": "Sir Wilfrid Laurier Public School", "lat": 43.8663, "lng": -79.3057 },
    { "name": "Glad Park Public School", "lat": 43.9681, "lng": -79.2508 },
    { "name": "Harry Bowes Public School", "lat": 43.9637, "lng": -79.2716 },
    { "name": "Oscar Peterson Public School", "lat": 43.9513, "lng": -79.2745 },
    { "name": "Stouffville District Secondary School", "lat": 43.9653, "lng": -79.2447 }
  ]